City_ID,City,Lat,Lng,Max Temp,Humidity,Cloudiness,Wind Speed,Country,Date
0,bayanaul,50.7889,75.6956,6.95,55,16,2.15,KZ,1697202958
1,ushuaia,-54.8,-68.3,8.79,79,75,14.31,AR,1697202958
2,puerto natales,-51.7236,-72.4875,10.25,62,75,6.69,CL,1697202958
3,aripuana,-9.1667,-60.6333,33.99,42,16,0.73,BR,1697202958
4,lompoc,34.6391,-120.4579,18.21,100,20,3.09,US,1697202958
5,nyurba,63.2842,118.3319,-3.27,51,89,1.79,RU,1697202959
6,undurkhaan,47.3194,110.6556,8.48,41,0,3.33,MN,1697202959
7,san patricio,28.017,-97.5169,24.9,95,1,2.13,US,1697202959
8,college,64.8569,-147.8028,-0.03,74,100,2.06,US,1697202959
9,waitangi,-43.9535,-176.5597,11.57,89,7,3.58,NZ,1697202960
10,iqaluit,63.7506,-68.5145,-0.15,86,75,1.54,CA,1697202960
11,bredasdorp,-34.5322,20.0403,18.99,55,14,6.0,ZA,1697202960
12,luanco,43.6152,-5.7934,24.15,84,100,5.14,ES,1697202960
13,adamstown,-25.066,-130.1015,20.35,69,100,4.18,PN,1697202907
14,bilibino,68.0546,166.4372,-6.69,93,100,1.5,RU,1697202961
15,bethel,41.3712,-73.414,11.2,71,0,3.6,US,1697202938
16,port-aux-francais,-49.35,70.2167,2.82,78,64,11.19,TF,1697202961
17,dara,15.3484,-15.4799,34.96,44,36,0.86,SN,1697202961
18,susuman,62.7833,148.1667,-12.23,84,100,0.89,RU,1697202962
19,saipan,15.1355,145.701,28.38,81,100,7.39,MP,1697202718
20,jaru,-10.4389,-62.4664,34.16,44,7,0.92,BR,1697202705
21,port alfred,-33.5906,26.891,18.43,86,69,5.36,ZA,1697202963
22,invercargill,-46.4,168.35,13.9,56,100,1.79,NZ,1697202964
23,selkirk,50.1436,-96.8845,9.04,87,89,0.45,CA,1697202964
24,palikir - national government center,6.9248,158.1611,25.25,83,100,4.39,FM,1697202964
25,albany,42.6001,-73.9662,9.05,75,1,0.45,US,1697202965
26,afaahiti,-17.75,-149.2833,22.93,80,70,7.5,PF,1697202965
27,chengde,40.9725,117.9361,11.65,56,3,1.6,CN,1697202965
28,thompson,55.7435,-97.8558,0.09,100,0,1.54,CA,1697202884
29,blackmans bay,-43.0167,147.3167,10.41,73,100,1.34,AU,1697202965
30,remire-montjoly,4.9167,-52.2667,31.02,66,75,2.57,GF,1697202966
31,fort bragg,35.139,-79.006,17.86,97,100,0.45,US,1697202966
32,anadyr,64.75,177.4833,1.28,93,75,8.0,RU,1697202966
33,smithers,54.7804,-127.1743,1.18,100,100,0.0,CA,1697202966
34,alofi,-19.0595,-169.9187,23.62,82,94,6.4,NU,1697202718
35,edinburgh of the seven seas,-37.0676,-12.3116,14.56,96,100,8.23,SH,1697202967
36,yellowknife,62.456,-114.3525,7.45,100,100,5.14,CA,1697202967
37,kone,-21.0595,164.8658,20.05,87,27,1.47,NC,1697202967
38,cill airne,52.05,-9.5167,12.03,76,75,3.09,IE,1697202968
39,cova figueira,14.8905,-24.2934,25.23,75,15,2.88,CV,1697202968
40,west island,-12.1568,96.8225,25.99,83,75,7.2,CC,1697202968
41,badr hunayn,23.7829,38.7905,37.4,28,0,7.67,SA,1697202968
42,iskateley,67.6803,53.1512,1.12,76,100,4.02,RU,1697202969
43,mount isa,-20.7333,139.5,25.87,15,5,8.23,AU,1697202969
44,talnakh,69.4865,88.3972,0.67,97,96,2.38,RU,1697202969
45,nouadhibou,20.931,-17.0347,33.99,27,2,2.06,MR,1697202970
46,zouerate,22.7187,-12.4521,36.87,13,4,5.86,MR,1697202970
47,vanimo,-2.6741,141.3028,26.74,88,57,2.45,PG,1697202970
48,palpa,-14.5336,-75.1856,25.34,53,17,2.0,PE,1697202970
49,ambodifotatra,-16.9833,49.85,25.38,75,0,3.77,MG,1697202971
50,st. john's,47.5649,-52.7093,13.75,97,100,6.17,CA,1697202954
51,huazhou,21.6333,110.5833,24.98,77,100,1.05,CN,1697202971
52,san antonio de pale,-1.4014,5.6325,25.9,82,99,5.59,GQ,1697202971
53,tarawa,1.419,172.984,28.05,83,75,0.51,KI,1697202971
54,sinop,41.7711,34.8709,17.11,53,0,2.18,TR,1697202972
55,nieuw amsterdam,5.8833,-55.0833,31.19,71,75,4.12,SR,1697202972
56,hadibu,12.65,54.0333,27.94,71,59,1.6,YE,1697202972
57,mariehamn,60.0973,19.9348,8.92,81,0,7.2,AX,1697202973
58,namibe,-15.1961,12.1522,22.86,68,42,4.86,AO,1697202973
59,sola,-13.8833,167.55,25.93,81,100,7.97,VU,1697202973
60,grytviken,-54.2811,-36.5092,-2.15,82,82,3.66,GS,1697202974
61,utrik,11.2278,169.8474,28.24,78,37,6.08,MH,1697202974
62,hithadhoo,-0.6,73.0833,27.54,76,39,4.89,MV,1697202974
63,georgetown,5.4112,100.3354,29.97,79,20,2.57,MY,1697202886
64,stanley,54.868,-1.6985,12.81,71,20,8.75,GB,1697202975
65,weno,7.4515,151.8468,25.97,94,100,1.54,FM,1697202975
66,hawaiian paradise park,19.5933,-154.9731,21.69,95,0,1.54,US,1697202975
67,urangan,-25.3,152.9,21.24,76,0,5.96,AU,1697202976
68,wailua homesteads,22.0669,-159.378,22.24,82,13,2.67,US,1697202976
69,sao vicente,-23.9631,-46.3919,22.37,62,100,1.03,BR,1697202976
70,enewetak,11.3474,162.3373,28.45,72,3,4.01,MH,1697202976
71,tiksi,71.6872,128.8694,-6.65,96,100,2.96,RU,1697202977
72,meulaboh,4.1363,96.1285,25.32,88,91,0.44,ID,1697202977
73,manta,-0.95,-80.7333,25.88,78,75,4.12,EC,1697202977
74,carutapera,-1.195,-46.02,31.19,59,34,4.39,BR,1697202716
75,jiangyou,31.7667,104.7167,18.7,75,99,1.05,CN,1697202978
76,port mathurin,-19.6833,63.4167,23.19,75,20,6.53,MU,1697202978
77,tiassale,5.8983,-4.8283,29.32,71,100,1.23,CI,1697202978
78,porto murtinho,-21.6989,-57.8825,23.46,50,24,3.13,BR,1697202978
79,natal,-5.795,-35.2094,31.12,66,75,7.2,BR,1697202918
80,extrema,-22.8547,-46.3183,20.7,87,100,1.87,BR,1697202979
81,jamestown,42.097,-79.2353,8.64,89,0,0.89,US,1697202979
82,arraial do cabo,-22.9661,-42.0278,24.92,88,75,4.12,BR,1697202979
83,billiri,9.8647,11.2253,35.25,29,19,4.64,NG,1697202980
84,madimba,-10.4,40.3333,28.43,60,63,3.94,TZ,1697202980
85,port elizabeth,-33.918,25.5701,16.16,96,100,8.23,ZA,1697202980
86,sechura,-5.5569,-80.8222,20.37,78,80,4.57,PE,1697202980
87,margaret river,-33.95,115.0667,14.39,84,0,6.83,AU,1697202981
88,olonkinbyen,70.9221,-8.7187,-1.71,80,100,10.18,SJ,1697202981
89,portage la prairie,49.9728,-98.2926,8.05,87,100,3.6,CA,1697202981
90,anacapri,40.5558,14.2136,24.72,74,20,2.06,IT,1697202981
91,ilulissat,69.2167,-51.1,-0.99,100,100,7.2,GL,1697202982
92,aykhal,66.0,111.5,-4.41,78,97,4.92,RU,1697202982
93,tercan,39.7794,40.3925,18.98,18,0,1.39,TR,1697202982
94,heihe,50.2441,127.4902,14.32,49,11,2.89,CN,1697202982
95,jan kempdorp,-27.9225,24.8305,23.4,18,9,4.32,ZA,1697202983
96,fale old settlement,-9.3852,-171.2468,28.42,73,62,10.12,TK,1697202983
97,hermanus,-34.4187,19.2345,16.67,64,33,4.83,ZA,1697202983
98,hami,42.8,93.45,20.04,23,0,0.81,CN,1697202984
99,ribeira grande,38.5167,-28.7,21.22,78,40,4.12,PT,1697202984
100,acapulco de juarez,16.8634,-99.8901,24.9,88,75,2.06,MX,1697202984
101,whitehorse,60.7161,-135.0538,7.43,82,75,5.14,CA,1697202984
102,broome,42.2506,-75.833,7.34,92,100,2.57,US,1697202708
103,kirakira,-10.4544,161.9205,25.41,85,83,3.22,SB,1697202985
104,ati,13.2154,18.3353,39.52,13,24,6.26,TD,1697202985
105,bridgewater,44.3835,-64.5155,11.82,94,44,2.57,CA,1697202985
106,mount pearl,47.5166,-52.7813,13.29,96,100,6.17,CA,1697202985
107,guerrero negro,27.9769,-114.0611,16.22,85,0,1.99,MX,1697202986
108,samfya,-11.3649,29.5565,34.89,21,47,2.05,ZM,1697202986
109,miramichi,47.0043,-65.4654,8.69,96,100,2.31,CA,1697202720
110,vorgashor,67.5833,63.95,-0.35,69,100,4.58,RU,1697202767
111,sao jose da coroa grande,-8.8978,-35.1478,28.26,68,26,5.09,BR,1697202987
112,sandnessjoen,66.0217,12.6316,8.06,66,75,1.54,NO,1697202987
113,lebu,-37.6167,-73.65,10.73,68,98,7.89,CL,1697202987
114,pangody,65.85,74.4859,0.23,97,100,9.27,RU,1697202987
115,goure,13.9835,10.2704,37.58,12,94,8.07,NE,1697202988
116,puerto ayora,-0.7393,-90.3518,23.91,81,100,4.0,EC,1697202988
117,mangrol,21.1167,70.1167,28.44,76,9,4.19,IN,1697202988
118,saint-pierre,-21.3393,55.4781,24.82,65,20,7.2,RE,1697202988
119,pokhara,28.2333,83.9833,18.85,91,0,1.69,NP,1697202988
120,tongchuanshi,35.0806,109.0897,14.94,54,36,2.56,CN,1697202989
121,dudinka,69.4058,86.1778,1.49,93,100,6.71,RU,1697202702
122,chonchi,-42.6128,-73.8092,9.56,78,87,1.6,CL,1697202989
123,zanjan,36.6736,48.4787,17.83,48,20,3.09,IR,1697202989
124,udachny,66.4167,112.4,-8.08,78,94,2.79,RU,1697202990
125,vadso,70.0744,29.7487,3.49,86,88,4.12,NO,1697202990
126,aktau,43.65,51.2,15.32,44,100,8.58,KZ,1697202990
127,wewak,-3.5534,143.6268,27.4,87,47,2.98,PG,1697202990
128,lamar,33.6668,-95.5836,19.99,94,100,4.63,US,1697202991
129,wote,-1.7808,37.6288,31.89,27,82,5.05,KE,1697202996
130,waterford,42.7023,-83.4027,9.44,78,100,3.6,US,1697202968
131,nuku'alofa,-21.1333,-175.2,22.19,88,75,3.09,TO,1697202872
132,pasuquin,18.3328,120.6177,26.95,82,10,3.57,PH,1697202997
133,lobujya,27.95,86.8167,-5.44,87,38,1.14,NP,1697202997
134,karratha,-20.7377,116.8463,27.63,52,0,1.05,AU,1697202997
135,hamilton,39.1834,-84.5333,14.25,81,0,4.12,US,1697202997
136,tazovsky,67.4667,78.7,0.43,91,100,5.69,RU,1697202997
137,mweka,-4.85,21.5667,34.37,34,99,1.16,CD,1697202998
138,an nuhud,12.7,28.4333,37.16,19,7,1.41,SD,1697202998
139,qaqortoq,60.7167,-46.0333,4.31,58,23,2.38,GL,1697202998
140,agat village,13.3886,144.6585,27.52,89,0,2.06,GU,1697202998
141,severo-yeniseyskiy,60.3725,93.0408,3.65,91,100,6.26,RU,1697202999
142,port saint john's,-31.6229,29.5448,23.3,52,33,2.85,ZA,1697202999
143,zhuanghe,39.7008,122.9911,13.74,86,100,1.24,CN,1697202999
144,lihue,21.9789,-159.3672,22.58,82,14,3.15,US,1697202999
145,allapalli,19.4167,80.0667,25.88,75,35,1.17,IN,1697202999
146,taro,-8.3862,115.28,24.0,97,100,0.42,ID,1697203000
147,oral,51.2333,51.3667,11.99,62,0,10.0,KZ,1697203000
148,general conesa,-40.1,-64.4333,14.72,41,0,3.93,AR,1697203000
149,cooper's town,26.8667,-77.5167,28.57,86,100,5.7,BS,1697203000
150,longyearbyen,78.2186,15.6401,-0.09,80,75,5.14,SJ,1697203001
151,mount gambier,-37.8333,140.7667,12.6,78,100,5.08,AU,1697202703
152,castillos,-34.1667,-53.8333,12.77,53,0,1.36,UY,1697203001
153,kampen,52.555,5.9111,21.67,76,100,11.39,NL,1697203002
154,baharly,38.4362,57.4316,16.85,29,0,7.58,TM,1697203002
155,poronaysk,49.2167,143.1167,10.72,68,2,3.59,RU,1697203002
156,kota,25.1833,75.8333,31.33,33,20,0.42,IN,1697203002
157,laojunmiao,39.8333,97.7333,9.63,28,0,1.08,CN,1697203003
158,la passe,45.5549,-0.8967,27.13,56,100,7.6,FR,1697203003
159,papao,-17.75,-149.55,23.82,81,90,8.97,PF,1697203003
160,zhenlai,45.8495,123.2973,14.39,53,0,3.75,CN,1697203003
161,belmonte,-15.8631,-38.8828,27.34,68,100,5.39,BR,1697203003
162,maintirano,-18.0667,44.0167,28.1,66,0,4.71,MG,1697203004
163,zapolyarnyy,69.4154,30.8136,2.6,88,54,4.14,RU,1697203004
164,arno,60.1167,18.6333,8.77,69,100,5.22,SE,1697203004
165,kadugli,11.0167,29.7167,34.86,36,40,1.25,SD,1697203004
166,kruisfontein,-34.0033,24.7314,15.47,81,87,6.37,ZA,1697203005
167,new norfolk,-42.7826,147.0587,11.07,91,100,1.93,AU,1697203005
168,pangai,-19.8,-174.35,23.13,78,99,5.98,TO,1697203005
169,avarua,-21.2078,-159.775,19.03,100,100,1.03,CK,1697203005
170,turpan,42.9333,89.1667,24.02,19,0,1.38,CN,1697202724
171,adre,13.4667,22.2,36.07,16,64,6.91,TD,1697203006
172,papatowai,-46.5619,169.4708,9.38,83,100,2.58,NZ,1697203006
173,rumonge,-3.9736,29.4386,27.71,59,82,2.17,BI,1697203006
174,tympaki,35.0729,24.7685,25.06,57,45,3.13,GR,1697203007
175,namdrik,5.5994,168.1028,28.6,74,47,2.9,MH,1697203007
176,linhares,-19.3911,-40.0722,30.01,47,100,3.55,BR,1697203007
177,pizarro,4.9533,-77.366,26.55,85,64,1.44,CO,1697203007
178,carnarvon,-24.8667,113.6333,25.04,54,11,8.35,AU,1697203008
179,bandarbeyla,9.4942,50.8122,28.36,72,5,5.12,SO,1697203008
180,hemsby,52.6971,1.6918,21.32,83,96,10.77,GB,1697203008
181,aasiaat,68.7098,-52.8699,-1.39,77,100,6.71,GL,1697203008
182,altai,46.3722,96.2583,7.07,30,11,2.3,MN,1697203009
183,manokwari,-0.8667,134.0833,26.66,82,17,0.26,ID,1697202907
184,cascais,38.6979,-9.4215,26.95,81,75,11.18,PT,1697203009
185,nelson,-41.2833,173.2833,9.6,79,5,0.45,NZ,1697203009
186,ust-nera,64.5667,143.2,-12.1,95,100,2.24,RU,1697203009
187,punta arenas,-53.15,-70.9167,8.06,57,0,12.86,CL,1697203010
188,mossel bay,-34.1831,22.146,17.96,68,44,5.21,ZA,1697203010
189,swakopmund,-22.6833,14.5333,15.09,77,56,4.86,NA,1697203010
190,sitka,57.0531,-135.33,12.94,76,100,7.72,US,1697203010
191,vernon,50.2581,-119.2691,6.83,88,9,0.51,CA,1697202890
192,colonia,50.9333,6.95,24.77,56,20,6.17,DE,1697202938
193,walvis bay,-22.9575,14.5053,18.21,62,37,6.25,NA,1697203011
194,talcahuano,-36.7167,-73.1167,10.82,66,0,2.57,CL,1697203011
195,kovdor,67.5662,30.4758,1.64,81,100,2.5,RU,1697203012
196,kailua-kona,19.6406,-155.9956,24.72,82,0,2.57,US,1697203012
197,tenno,39.9,139.9667,18.53,56,100,3.22,JP,1697203012
198,fort valley,32.5538,-83.8874,16.87,95,100,4.12,US,1697202991
199,ola,59.5833,151.2833,-1.99,53,93,2.96,RU,1697203013
200,inyati,-19.6756,28.8469,36.65,14,96,3.47,ZW,1697203013
201,lata,40.1629,-8.3327,26.94,41,96,4.03,PT,1697203013
202,acarau,-2.8856,-40.12,30.85,59,97,7.16,BR,1697202960
203,kabare,-2.4683,28.8242,23.63,67,75,0.87,CD,1697203013
204,labrador city,52.9463,-66.9114,5.95,100,100,3.6,CA,1697202914
205,andovoranto,-18.95,49.1,25.96,66,0,5.16,MG,1697203014
206,chaltyr,47.2848,39.4823,16.9,59,100,4.75,RU,1697203014
207,isafjordur,66.0755,-23.124,0.02,59,75,2.57,IS,1697203014
208,kamaishi,39.2667,141.8833,14.77,78,92,3.74,JP,1697203014
209,empalme,27.9667,-110.8167,22.18,77,0,1.47,MX,1697203015
210,morden,49.1919,-98.1014,7.79,81,84,3.6,CA,1697203015
211,kuanda,56.3161,116.0806,7.31,52,100,2.72,RU,1697203015
212,luderitz,-26.6481,15.1594,21.14,52,0,10.81,NA,1697202724
213,richards bay,-28.783,32.0377,23.22,59,7,4.39,ZA,1697203016
214,cabo san lucas,22.8909,-109.9124,25.42,75,40,5.14,MX,1697203016
215,reitz,-27.8014,28.4273,22.36,14,0,8.13,ZA,1697203016
216,enoch,37.7733,-113.0244,1.93,80,0,0.0,US,1697203016
217,ntoum,0.3833,9.7833,27.87,89,99,1.87,GA,1697203016
218,ust-tsilma,65.441,52.1498,5.34,89,96,1.79,RU,1697203017
219,tsiombe,-25.3,45.4833,31.07,51,28,3.96,MG,1697203017
220,communications hill,37.2965,-121.8669,16.98,64,0,2.06,US,1697203017
221,okha,53.5739,142.9478,10.3,71,32,5.74,RU,1697203017
222,badger,64.8,-147.5333,-0.07,79,100,2.06,US,1697203018
223,kharkhorin,47.1975,102.8238,9.35,35,2,1.94,MN,1697203018
224,atafu village,-8.5421,-172.5159,28.66,71,100,9.67,TK,1697203018
225,alaghsas,17.0187,8.0168,36.94,14,0,8.23,NE,1697203018
226,puerto deseado,-47.7503,-65.8938,11.06,53,6,4.19,AR,1697203019
227,pierre,44.3683,-100.351,6.51,91,100,9.77,US,1697203019
228,tralee,52.2704,-9.7026,12.14,76,75,3.09,IE,1697203019
229,petropavlovsk-kamchatsky,53.0452,158.6483,3.03,73,100,6.71,RU,1697203019
230,kiffa,16.6166,-11.4045,36.63,27,56,2.53,MR,1697203019
231,bhachau,23.2833,70.35,32.87,44,5,3.78,IN,1697203020
232,uturoa,-16.7333,-151.4333,25.71,80,25,8.21,PF,1697203020
233,sikasso,10.9167,-7.0,33.14,48,97,1.46,ML,1697203020
234,quepos,9.4236,-84.1652,27.49,77,74,0.24,CR,1697203020
235,paredon,16.0333,-93.8667,27.22,81,95,1.73,MX,1697203020
236,awjilah,29.1081,21.2869,29.23,26,0,5.66,LY,1697203021
237,egilsstadir,65.2653,-14.3948,-0.05,93,75,10.8,IS,1697203021
238,bima,-8.4667,118.7167,24.84,89,56,1.88,ID,1697202921
239,pavilosta,56.8879,21.1859,12.95,69,100,7.41,LV,1697203021
240,ponta delgada,37.7333,-25.6667,21.4,83,20,4.12,PT,1697203022
241,sile,41.1754,29.6133,23.37,56,2,1.34,TR,1697203022
242,crane,31.3974,-102.3501,17.54,15,0,4.74,US,1697203022
243,taylor,32.3001,-99.8337,16.96,40,0,7.2,US,1697202975
244,melilla,35.2937,-2.9383,29.11,65,40,3.09,ES,1697203022
245,tabou,4.423,-7.3528,27.05,79,100,3.0,CI,1697203023
246,kavaratti,10.5669,72.642,28.49,69,29,0.75,IN,1697203023
247,pori,61.4833,21.7833,10.04,62,0,4.12,FI,1697203023
248,rio preto da eva,-2.6994,-59.6997,31.37,48,85,0.92,BR,1697203023
249,rongelap,11.1635,166.8941,28.24,74,100,4.42,MH,1697203024
250,puerto carreno,6.189,-67.4859,30.42,63,12,2.68,CO,1697202989
251,machico,32.7,-16.7667,28.96,78,20,5.14,PT,1697203024
252,shakhtersk,48.0625,38.5167,13.56,50,100,4.05,UA,1697203024
253,cam ranh,11.9214,109.1591,27.98,83,40,3.09,VN,1697203024
254,manay,7.215,126.5397,26.33,87,100,2.83,PH,1697203025
255,bonny,4.4522,7.1681,28.74,74,84,4.28,NG,1697203025
256,borgarnes,64.5383,-21.9206,1.03,59,37,6.21,IS,1697203025
257,tura,25.5198,90.2201,22.11,80,0,1.14,IN,1697203025
258,bubaque,11.2833,-15.8333,27.04,79,100,4.7,GW,1697203026
259,rudnichnyy,59.617,52.4703,6.06,81,100,6.56,RU,1697203026
260,leh,34.1667,77.5833,9.73,23,7,2.64,IN,1697203026
261,puerto aysen,-45.4,-72.7,7.22,90,100,1.16,CL,1697203027
262,nioki,-2.7167,17.6833,31.69,51,100,0.24,CD,1697203027
263,itoman,26.1247,127.6694,26.01,62,20,6.69,JP,1697202728
264,westport,41.1415,-73.3579,13.83,70,0,5.14,US,1697202804
265,las tablas,7.7667,-80.2833,28.51,76,73,1.03,PA,1697203027
266,asipovichy,53.2933,28.6422,13.81,51,79,3.71,BY,1697203028
267,inhambane,-23.865,35.3833,26.99,89,0,7.72,MZ,1697203028
268,sirte,31.2089,16.5887,25.24,56,0,3.47,LY,1697203028
269,crystal city,28.6775,-99.8281,22.06,100,100,1.54,US,1697203029
270,kavalerovo,44.2661,135.0572,13.08,78,4,2.24,RU,1697203029
271,inarajan village,13.2736,144.7484,27.54,92,100,5.37,GU,1697203029
272,rudsar,37.1376,50.288,19.99,82,44,3.23,IR,1697203029
273,guledagudda,16.05,75.8,30.4,30,85,3.99,IN,1697203030
274,ixtapa,20.7,-105.2,22.9,92,7,1.58,MX,1697203030
275,volosovo,59.4333,29.4833,9.33,72,100,4.24,RU,1697203030
276,sonoita,31.85,-112.8333,18.72,54,1,1.63,MX,1697203031
277,toliara,-23.35,43.6667,28.23,64,4,5.67,MG,1697203031
278,ancud,-41.8697,-73.8203,8.92,69,6,0.95,CL,1697203031
279,reggane,26.7158,0.1714,34.04,14,100,4.41,DZ,1697203032
280,ghadamis,30.1337,9.5007,30.97,19,0,2.66,LY,1697203032
281,pisco,-13.7,-76.2167,19.03,77,2,0.51,PE,1697203032
282,namtsy,62.7161,129.6658,-2.2,65,17,5.25,RU,1697203032
283,isangel,-19.55,169.2667,22.78,87,100,5.44,VU,1697203033
284,kodiak,57.79,-152.4072,-3.27,86,0,3.09,US,1697203033
285,bandon,51.7469,-8.7425,12.77,68,0,8.78,IE,1697203034
286,nishinoomote,30.7333,131.0,23.78,67,83,7.25,JP,1697203034
287,alcantara,-2.4089,-44.4147,30.11,70,98,5.15,BR,1697203034
288,trairi,-3.2778,-39.2689,31.21,55,39,7.16,BR,1697202744
289,dryden,49.7833,-92.7503,5.16,93,100,3.6,CA,1697203035
290,minbu,20.1833,94.8833,27.44,74,10,0.63,MM,1697203035
291,taguatinga,-12.3857,-46.5711,38.88,17,6,1.22,BR,1697203035
292,upata,8.0086,-62.3989,29.95,54,99,2.79,VE,1697203035
293,geneina,13.45,22.45,36.23,15,64,6.73,SD,1697203036
294,suva,-18.1416,178.4415,23.71,94,75,0.0,FJ,1697203036
295,fate,32.9415,-96.3814,22.36,91,100,5.66,US,1697203036
296,molchanovo,57.5817,83.7692,6.62,57,99,4.99,RU,1697203037
297,minas de marcona,-15.2119,-75.1103,17.16,70,37,4.26,PE,1697203037
298,todaraisingh,26.0167,75.4833,30.95,31,13,1.46,IN,1697203037
299,echzell,50.4,8.9,25.69,78,81,2.24,DE,1697203038
300,malvan,16.0667,73.4667,28.32,79,96,3.55,IN,1697203038
301,wangaratta,-36.3667,146.3333,12.39,92,100,1.9,AU,1697202755
302,vad,55.5301,44.2114,10.84,66,6,7.63,RU,1697203038
303,kaa-khem,51.6833,94.7333,11.89,61,100,4.34,RU,1697203039
304,isoka,-10.1606,32.6335,34.95,16,100,3.14,ZM,1697203039
305,geraldton,-28.7667,114.6,21.23,68,8,5.14,AU,1697203039
306,le lorrain,14.8329,-61.0567,28.97,75,22,3.75,MQ,1697203039
307,goz beida,13.95,20.55,39.26,11,34,5.5,TD,1697203039
308,jinghong,21.991,100.7341,20.53,99,96,0.6,CN,1697203040
309,oppdal,62.5943,9.6912,3.37,87,100,5.48,NO,1697203040
310,viedma,-40.8135,-62.9967,14.77,39,4,3.24,AR,1697203040
311,chita,52.0333,113.55,7.94,53,100,2.0,RU,1697203041
312,bardai,11.65,7.2333,34.06,29,84,5.37,NG,1697203041
313,zhosaly,45.4878,64.0781,12.13,27,16,3.48,KZ,1697203041
314,koulikoro,14.0,-7.75,35.96,25,70,2.72,ML,1697203041
315,mejit,10.2753,170.8646,27.6,80,57,5.02,MH,1697203042
316,yigo village,13.5361,144.8886,26.62,90,0,4.12,GU,1697203042
317,talodi,10.6325,30.3797,35.07,36,5,1.68,SD,1697203042
318,sinan,34.8262,126.1086,17.06,64,100,3.41,KR,1697203042
319,colotlan,22.1,-103.2667,13.23,86,0,0.33,MX,1697203043
320,panaba,21.2833,-88.2667,27.35,94,100,2.69,MX,1697203043
321,nova sintra,14.8667,-24.7167,24.19,78,45,2.8,CV,1697203043
322,periban de ramos,19.5167,-102.4167,15.78,92,2,2.04,MX,1697203043
323,jacarezinho,-23.1606,-49.9694,19.39,86,100,3.43,BR,1697203043
324,kerikeri,-35.2268,173.9474,7.73,89,11,2.0,NZ,1697203044
325,montdidier,49.75,2.5833,23.62,42,100,7.64,FR,1697203044
326,durban,-29.8579,31.0292,22.51,64,0,4.26,ZA,1697203044
327,tamanrasset,22.785,5.5228,29.95,15,40,2.06,DZ,1697203045
328,kargil,34.5667,76.1,9.94,24,23,3.54,IN,1697203045
329,sisimiut,66.9395,-53.6735,1.13,79,100,4.88,GL,1697203046
330,al bawiti,28.3492,28.8659,29.34,26,0,5.64,EG,1697203046
331,leominster,42.5251,-71.7598,10.76,76,2,5.14,US,1697203046
332,jhawarian,32.3614,72.6228,30.82,15,1,2.47,PK,1697203047
333,benghazi,32.1167,20.0667,23.97,57,0,3.95,LY,1697203047
334,kashgar,39.4547,75.9797,21.56,18,75,2.0,CN,1697203047
335,isla mujeres,21.2311,-86.731,30.09,84,13,6.88,MX,1697203048
336,east london,-33.0153,27.9116,20.52,64,20,16.98,ZA,1697203048
337,constantia,44.1833,28.65,23.38,49,100,1.22,RO,1697203048
338,selfoss,63.9331,-20.9971,1.69,64,4,9.12,IS,1697203048
339,coahuayana de hidalgo,18.7,-103.6583,23.14,93,2,1.48,MX,1697203048
340,polyarnyy,69.1989,33.4478,3.37,75,97,4.16,RU,1697203049
341,xai-xai,-25.0519,33.6442,25.49,73,100,6.39,MZ,1697203049
342,lamu,-2.2717,40.902,29.12,73,17,4.74,KE,1697203049
343,padang,-0.9492,100.3543,27.03,92,86,1.92,ID,1697203049
344,patan,27.6667,85.3333,21.21,83,75,3.6,NP,1697203050
345,kingston,17.997,-76.7936,31.53,72,20,3.09,JM,1697202914
346,arboga,59.3939,15.8388,11.23,69,100,4.33,SE,1697203050
347,portland,45.5234,-122.6762,15.99,72,0,4.47,US,1697202846
348,yuzhno-kurilsk,44.0306,145.8556,12.99,82,0,3.62,RU,1697203050
349,winnemucca,40.973,-117.7357,3.03,75,0,5.14,US,1697203049
350,woolgoolga,-30.1106,153.2007,13.91,66,0,0.7,AU,1697203051
351,juneau,58.3019,-134.4197,12.9,91,100,8.23,US,1697203051
352,panama city beach,30.1766,-85.8055,19.47,98,100,2.06,US,1697203051
353,siwa oasis,29.2041,25.5195,30.9,23,0,4.67,EG,1697203051
354,lautoka,-17.6167,177.4667,23.92,83,40,1.54,FJ,1697203052
355,san sebastian de la gomera,28.0916,-17.1133,35.2,17,0,3.6,ES,1697203052
356,emerald,-23.5333,148.1667,25.19,22,32,9.39,AU,1697202783
357,opuwo,-18.0607,13.84,34.75,14,7,5.74,NA,1697203052
358,zaozersk,69.4005,32.4476,2.0,80,59,3.42,RU,1697203053
359,augusta,48.3667,10.8833,27.64,29,0,3.6,DE,1697203053
360,elk city,35.412,-99.4043,10.12,53,0,11.83,US,1697203053
361,bordighera,43.7806,7.6645,25.8,86,6,4.02,IT,1697203053
362,sarikei,2.1167,111.5167,25.0,91,100,0.16,MY,1697203054
363,zalingei,12.9096,23.4741,35.51,17,3,4.66,SD,1697203054
364,berezovo,63.9381,65.0419,-0.02,84,100,0.89,RU,1697203054
365,garui,22.6333,88.4,31.01,58,20,2.06,IN,1697203054
366,qarazhal,48.0078,70.7903,9.5,40,100,5.68,KZ,1697203054
367,broken hill,-31.95,141.4333,16.43,52,0,2.26,AU,1697203055
368,colonia menno,-22.3667,-59.8167,18.79,45,100,5.03,PY,1697203055
369,guercif,34.2257,-3.3536,31.47,19,0,1.65,MA,1697203055
370,saint-maximin-la-sainte-baume,43.4521,5.8622,25.57,43,6,3.85,FR,1697203055
371,luchenza,-16.0069,35.3095,37.99,15,9,2.98,MW,1697203055
372,playa del ingles,27.7567,-15.5787,30.86,40,13,5.02,ES,1697202909
373,ulladulla,-35.35,150.4667,10.43,72,12,2.79,AU,1697203056
374,rio san juan,19.6439,-70.0763,28.41,72,100,2.63,DO,1697203056
375,peace river,56.2501,-117.286,8.7,97,0,1.54,CA,1697203056
376,antalaha,-14.9003,50.2788,26.17,79,8,3.22,MG,1697203057
377,karystos,38.0133,24.4161,24.55,44,0,0.52,GR,1697203057
378,yermentau,51.6214,73.1069,6.56,34,7,4.8,KZ,1697203057
379,twon-brass,4.3151,6.2418,27.8,79,100,4.51,NG,1697203057
380,anloga,5.7947,0.8973,27.86,77,100,2.84,GH,1697203058
381,akureyri,65.6835,-18.0878,0.96,69,75,9.26,IS,1697203058
382,kourou,5.1552,-52.6478,31.03,58,91,3.59,GF,1697203058
383,klyuchi,52.2667,79.1667,7.42,41,0,3.09,RU,1697203058
384,aqadyr,48.2553,72.8483,7.8,64,100,2.06,KZ,1697203058
385,tolanaro,-25.0319,46.9987,26.7,73,66,7.52,MG,1697203059
386,greymouth,-42.4667,171.2,11.31,92,100,5.53,NZ,1697203059
387,klaksvik,62.2266,-6.589,5.51,96,99,20.6,FO,1697203059
388,pimentel,-6.8367,-79.9342,20.16,77,0,5.66,PE,1697203059
389,zeya,53.75,127.2667,6.94,57,44,1.85,RU,1697203060
390,srinivaspur,13.3333,78.2167,23.07,59,57,2.67,IN,1697203060
391,chuchar-kana mandi,31.75,73.8,29.51,18,0,2.93,PK,1697203060
392,happy valley-goose bay,53.3168,-60.3315,8.17,93,100,6.17,CA,1697202911
393,champerico,14.3,-91.9167,26.3,84,25,2.33,GT,1697203061
394,pico truncado,-46.7949,-67.9573,11.76,40,99,0.96,AR,1697203061
395,mimizan,44.2006,-1.2289,29.7,42,100,7.33,FR,1697203061
396,saint-joseph,-21.3667,55.6167,24.21,75,51,3.66,RE,1697203061
397,williams lake,52.1415,-122.1445,4.76,93,0,2.06,CA,1697203062
398,langepas,61.2544,75.2124,2.82,94,100,7.22,RU,1697203062
399,vryburg,-26.9566,24.7284,25.56,12,0,3.47,ZA,1697203062
400,ta`u,-14.2336,-169.5144,26.61,79,68,8.59,AS,1697203062
401,coruripe,-10.1256,-36.1756,28.56,66,40,6.24,BR,1697203063
402,sao pedro do sul,-29.6206,-54.1789,13.18,68,0,4.3,BR,1697203063
403,jiangzi,28.95,89.6333,1.62,69,96,2.44,CN,1697203063
404,mabaruma,8.2,-59.7833,31.73,56,12,1.42,GY,1697203063
405,oranjemund,-28.55,16.4333,18.44,62,0,10.06,NA,1697203064
406,jackson,42.4165,-122.8345,8.25,88,0,1.54,US,1697203064
407,paka,4.6374,103.4368,28.96,79,39,0.0,MY,1697203064
408,khilok,51.3674,110.4676,10.38,58,64,2.24,RU,1697202843
409,pahrump,36.2083,-115.9839,10.7,36,43,1.08,US,1697203065
410,mogocha,53.7333,119.7667,9.86,56,100,1.79,RU,1697203065
411,madang,-5.2246,145.7966,25.68,91,55,1.63,PG,1697203065
412,port lincoln,-34.7333,135.8667,13.98,74,86,5.64,AU,1697203065
413,mont-dore,-22.2833,166.5833,18.99,90,6,3.32,NC,1697203066
414,wenchang,30.904,118.4887,17.36,80,83,1.28,CN,1697203066
415,peniche,39.3558,-9.3811,27.18,63,95,8.22,PT,1697203066
416,usogorsk,63.4106,48.6872,5.93,92,99,3.39,RU,1697203066
417,vallet,47.1667,-1.2667,23.6,54,98,11.24,FR,1697203067
418,gourbeyre,15.9938,-61.6914,28.24,76,15,4.18,GP,1697203067
419,praia da vitoria,38.7333,-27.0667,21.53,78,20,3.24,PT,1697203067
420,saint-francois,46.4154,3.9054,29.25,33,0,4.12,FR,1697203067
421,ceerigaabo,10.6162,47.368,22.3,58,88,2.86,SO,1697203068
422,ludington,43.9553,-86.4526,8.45,97,100,3.09,US,1697203068
423,pontes e lacerda,-15.2261,-59.3353,28.92,45,38,3.17,BR,1697203068
424,shimoda,34.6667,138.95,15.06,62,29,2.73,JP,1697203069
425,el granada,37.5027,-122.4694,16.27,68,20,0.0,US,1697203069
426,cedeira,43.6797,-8.0209,20.54,78,100,4.97,ES,1697203069
427,kalia,23.0396,89.6328,27.16,54,2,0.1,BD,1697203069
428,gummi,12.1436,5.1081,38.26,19,100,4.82,NG,1697203069
429,itaituba,-4.2761,-55.9836,33.09,66,6,2.24,BR,1697203070
430,luganville,-15.5333,167.1667,25.09,81,100,3.43,VU,1697203070
431,yaren,-0.5472,166.916,29.17,71,42,2.94,NR,1697203070
432,concepcion,-36.827,-73.0498,10.89,66,0,2.57,CL,1697202997
433,lianzhou,24.7811,112.3825,20.17,83,40,1.78,CN,1697203071
434,bam,29.106,58.357,27.86,23,7,5.15,IR,1697203071
435,miracema do tocantins,-9.5618,-48.3967,36.01,33,42,2.37,BR,1697203071
436,kuching,1.55,110.3333,26.12,89,20,0.89,MY,1697203071
437,axim,4.8699,-2.2405,27.6,78,100,3.8,GH,1697203071
438,valparaiso,-33.0393,-71.6273,20.13,60,0,2.57,CL,1697203029
439,haiku-pauwela,20.9219,-156.3051,23.91,85,0,5.14,US,1697203072
440,novodvinsk,64.4165,40.8122,4.32,94,100,5.66,RU,1697203072
441,mao,39.8885,4.2658,26.31,78,75,5.66,ES,1697203072
442,sarmiento,-45.5882,-69.07,12.35,39,0,0.46,AR,1697203073
443,malvik,63.4333,10.6833,8.77,62,0,4.12,NO,1697203073
444,aweil,8.7682,27.4002,36.05,33,36,2.11,SS,1697203073
445,tomatlan,19.9333,-105.25,21.5,94,7,1.61,MX,1697203073
446,mahajanga,-15.7167,46.3167,28.9,63,0,5.8,MG,1697203073
447,oyama,36.3,139.8,21.99,51,31,0.97,JP,1697203074
448,kapa'a,22.0752,-159.319,22.99,82,8,2.96,US,1697203074
449,khovd,48.0056,91.6419,12.42,33,79,1.47,MN,1697203074
450,yasuj,30.6682,51.588,26.75,13,75,0.0,IR,1697203074
451,bhaisa,19.1,77.9667,26.72,61,56,2.85,IN,1697203075
452,piacabucu,-10.4056,-36.4344,28.88,64,24,5.86,BR,1697203075
453,alice springs,-23.7,133.8833,15.75,21,0,2.57,AU,1697203016
454,puerto baquerizo moreno,-0.9,-89.6,23.86,83,100,5.46,EC,1697203075
455,winslow,35.0242,-110.6974,-0.9,47,0,2.06,US,1697203075
456,benisheikh,11.8072,12.4909,39.03,15,100,5.15,NG,1697203076
457,igarka,67.4667,86.5833,0.48,97,93,3.88,RU,1697203076
458,flin flon,54.7682,-101.865,7.91,93,100,0.0,CA,1697203076
459,aquiraz,-3.9014,-38.3911,31.05,63,43,7.3,BR,1697203076
460,tromso,69.6496,18.957,4.01,75,40,3.6,NO,1697203003
461,dalhart,36.0595,-102.5133,7.01,57,0,7.72,US,1697202859
462,horta,38.5333,-28.6333,20.8,82,40,4.12,PT,1697203077
463,dapchi,12.4904,11.4944,39.38,13,100,6.33,NG,1697203077
464,arafat,21.3594,39.9664,40.52,11,0,3.98,SA,1697203077
465,hermosillo,29.0667,-110.9667,23.95,71,20,1.03,MX,1697203078
466,belawan,3.7755,98.6832,27.16,82,69,1.74,ID,1697203078
467,steamboat springs,40.485,-106.8317,-1.69,91,75,0.45,US,1697203078
468,cestos city,5.46,-9.5828,28.42,74,93,3.0,LR,1697203078
469,san-pedro,4.7485,-6.6363,28.02,73,80,3.24,CI,1697203078
470,taulaga,-11.0553,-171.0883,27.87,74,100,10.21,AS,1697203079
471,lingyuan,41.24,119.4011,10.52,85,99,1.89,CN,1697203079
472,zhob,31.3411,69.4481,27.54,13,42,6.64,PK,1697203079
473,long beach,33.767,-118.1892,19.06,92,0,0.0,US,1697203079
474,shakawe,-18.3667,21.85,38.97,14,93,0.69,BW,1697203080
475,qianzhou,28.3167,109.7167,15.36,95,100,0.83,CN,1697203080
476,nemuro,43.3236,145.575,13.84,71,0,2.96,JP,1697203080
477,dan sadau,11.2962,6.4952,34.44,32,100,3.33,NG,1697203080
478,nadym,65.5333,72.5167,0.71,98,100,7.07,RU,1697203081
479,abadan,30.3392,48.3043,40.97,15,40,3.09,IR,1697203081
480,serdar,38.9764,56.2757,16.55,24,0,11.15,TM,1697203081
481,vilyuchinsk,52.9306,158.4028,3.85,77,96,2.46,RU,1697203081
482,fisterra,42.9049,-9.2629,20.42,87,48,1.34,ES,1697203082
483,saudarkrokur,65.7461,-19.6394,-0.69,85,100,8.67,IS,1697203082
484,el calafate,-50.3408,-72.2768,6.49,77,4,3.45,AR,1697203082
485,bikenibeu village,1.3673,173.1241,27.98,83,75,0.51,KI,1697203082
486,moab,38.5733,-109.5498,7.03,68,0,1.84,US,1697203010
487,xicotencatl,23.0167,-98.8833,23.43,96,78,0.56,MX,1697203083
488,plastun,44.7561,136.2939,16.16,66,0,3.01,RU,1697203083
489,tacna,-18.0056,-70.2483,16.11,72,20,1.03,PE,1697203083
490,qionghai,19.2425,110.4642,23.61,90,100,2.51,CN,1697203083
491,ar ruways,24.1103,52.7306,33.39,47,0,3.79,AE,1697203084
492,okhotsk,59.3833,143.3,-1.04,80,100,4.53,RU,1697203084
493,prince george,53.9166,-122.753,4.23,93,40,1.79,CA,1697202870
494,taiynsha,53.8478,69.7639,9.47,36,27,8.21,KZ,1697203085
495,rocha,-34.4833,-54.3333,14.08,47,0,0.9,UY,1697203085
496,kutum,14.2,24.6667,33.67,16,71,8.08,SD,1697203085
497,korla,41.7597,86.1469,19.38,31,6,0.98,CN,1697203085
498,onokhoy,51.932,108.0747,4.86,60,100,1.5,RU,1697203086
499,codrington,-38.2667,141.9667,12.37,85,100,7.03,AU,1697203086
500,kotlas,61.2611,46.6556,5.59,93,100,5.36,RU,1697203086
501,santa terezinha,-29.9002,-50.0904,17.16,57,30,3.28,BR,1697203086
502,ceeldheer,3.8488,47.1806,29.08,66,15,6.28,SO,1697203087
503,kralendijk,12.15,-68.2667,30.99,70,33,6.17,BQ,1697203035
504,tidjikja,18.5564,-11.4271,36.78,18,7,1.2,MR,1697203087
505,ha tinh,18.3333,105.9,23.42,92,100,1.06,VN,1697203087
506,aoulef,26.9667,1.0833,35.12,11,100,6.86,DZ,1697203088
507,greenville,35.6127,-77.3663,17.3,94,0,0.89,US,1697203001
508,kloulklubed,7.0419,134.2556,28.28,79,82,4.77,PW,1697203088
509,arenapolis,-14.4503,-56.8461,33.77,42,76,2.88,BR,1697203088
510,georgievka,49.3314,81.5761,7.21,76,100,2.89,KZ,1697203088
511,vakfikebir,41.0458,39.2764,18.93,71,0,1.46,TR,1697203089
512,anamalais,10.5833,76.9333,24.61,66,55,1.22,IN,1697203089
513,childress,34.4264,-100.204,12.14,50,0,7.72,US,1697203089
514,callao,-12.0667,-77.15,23.18,88,75,3.6,PE,1697203089
515,pemangkat,1.1667,108.9667,27.83,77,100,2.04,ID,1697203090
516,queenstown,-31.8976,26.8753,16.69,47,48,10.4,ZA,1697203090
517,melito di porto salvo,37.9222,15.7714,27.39,57,19,7.2,IT,1697203090
518,pyin oo lwin,22.0333,96.4667,18.62,96,42,0.71,MM,1697203090
519,lewiston orchards,46.3804,-116.9754,9.93,81,0,2.57,US,1697202979
520,gizo,-8.103,156.8419,27.07,81,100,3.42,SB,1697203091
521,hirara,24.8,125.2833,25.92,69,20,6.17,JP,1697203091
522,villa huidobro,-34.8383,-64.5869,17.21,19,2,7.53,AR,1697203091
523,samana,19.2056,-69.3369,27.98,83,40,0.0,DO,1697203091
524,shenjiamen,29.9576,122.298,19.72,84,100,4.82,CN,1697203092
525,vershino-darasunskiy,52.35,115.5167,8.57,62,69,2.34,RU,1697203092
526,laguna,38.421,-121.4238,18.34,70,0,1.54,US,1697203092
527,mata-utu,-13.2816,-176.1745,27.33,83,2,9.27,WF,1697203092
528,orkney,-26.9802,26.6727,26.73,8,0,6.0,ZA,1697203092
529,wolbrom,50.3796,19.7583,21.41,59,100,5.99,PL,1697203093
530,huilong,31.8111,121.655,17.74,89,93,2.28,CN,1697203093
531,mazatlan,23.2167,-106.4167,25.51,87,75,1.54,MX,1697202798
532,clarence town,-32.5833,151.7833,15.87,65,0,1.33,AU,1697203093
533,moranbah,-22.0016,148.0466,21.81,47,9,4.1,AU,1697203094
534,ribas do rio pardo,-20.4431,-53.7592,27.77,50,41,2.83,BR,1697203094
535,lerwick,60.1545,-1.1494,9.0,75,100,10.53,GB,1697203072
536,kapuskasing,49.4169,-82.4331,7.05,100,100,3.6,CA,1697203094
537,maisi,43.0395,41.2621,15.69,50,0,1.5,GE,1697203094
538,gadzhiyevo,69.2551,33.3362,3.08,75,100,4.19,RU,1697203095
539,demre,36.2537,29.9777,26.56,57,1,4.15,TR,1697203095
540,porto velho,-8.7619,-63.9039,28.03,74,40,2.06,BR,1697203096
541,darwin,-12.4611,130.8418,27.99,78,20,1.03,AU,1697203096
542,plettenberg bay,-34.0527,23.3716,15.11,80,99,3.9,ZA,1697203096
543,jiuquan,39.7432,98.5174,13.66,23,6,2.2,CN,1697203096
544,ayorou,14.7308,0.9174,39.53,14,18,3.76,NE,1697203097
545,charters towers,-20.1,146.2667,19.1,71,8,4.79,AU,1697203097
546,saint-philippe,-21.3585,55.7679,24.77,79,49,3.61,RE,1697203097
547,civril,38.3014,29.7386,24.3,24,0,2.97,TR,1697203097
548,maceio,-9.6658,-35.7353,29.69,70,75,5.66,BR,1697202827
549,koumra,8.9126,17.5539,34.76,41,42,2.65,TD,1697203098
550,ogoja,6.6547,8.7976,30.99,63,98,1.26,NG,1697203098
551,san clemente del tuyu,-36.3569,-56.7235,17.21,59,0,5.54,AR,1697203098
552,tual,-5.6667,132.75,27.63,84,97,7.29,ID,1697203098
553,hancheng,32.5186,112.3522,19.23,64,100,2.86,CN,1697203099
554,san blas,21.5167,-105.2667,21.94,82,1,1.38,MX,1697203099
555,ust'-kulom,61.6864,53.6902,7.38,79,98,4.92,RU,1697203099
556,quellon,-43.1167,-73.6167,8.7,78,100,1.3,CL,1697203100
557,ampanihy,-24.7,44.75,35.83,19,5,7.2,MG,1697203100
558,canon city,38.441,-105.2424,5.9,77,0,0.0,US,1697202943
559,az zubayr,30.3945,47.7011,38.92,22,40,4.12,IQ,1697203100
560,phanom sarakham,13.7479,101.3553,27.01,95,98,2.4,TH,1697203101
561,charleston,32.7766,-79.9309,18.01,90,75,4.12,US,1697202852
562,sanctuary point,-35.1114,150.629,15.97,67,12,3.25,AU,1697203101
563,novi pazar,43.1367,20.5122,26.47,30,27,1.34,RS,1697203102
564,kachkanar,58.7,59.4948,3.72,95,100,5.77,RU,1697203102
565,ambon,-3.6954,128.1814,28.08,89,40,1.54,ID,1697203102
566,ilheus,-14.7889,-39.0494,27.9,74,40,4.12,BR,1697203003
567,abu road,24.4833,72.7833,28.62,44,0,2.51,IN,1697203102
568,kayangel,8.0823,134.7173,28.38,77,96,6.26,PW,1697203103
569,jumilla,38.4792,-1.325,28.86,34,6,3.16,ES,1697203103
570,howard springs,-12.497,131.047,27.95,71,10,1.63,AU,1697203103
571,thunder bay,48.4001,-89.3168,1.99,100,75,2.57,CA,1697202908
